{"plus_code": {"compound_code": "FV8P+X3C Arezzo, Province of Arezzo, Italy", "global_code": "8FMHFV8P+X3C"}, "results": [{"address_components": [{"long_name": "10", "short_name": "10", "types": ["street_number"]}, {"long_name": "Via Madonna Laura", "short_name": "Via Madonna Laura", "types": ["route"]}, {"long_name": "Arezzo", "short_name": "Arezzo", "types": ["locality", "political"]}, {"long_name": "Arezzo", "short_name": "Arezzo", "types": ["administrative_area_level_3", "political"]}, {"long_name": "Provincia di Arezzo", "short_name": "AR", "types": ["administrative_area_level_2", "political"]}, {"long_name": "Toscana", "short_name": "Toscana", "types": ["administrative_area_level_1", "political"]}, {"long_name": "Italy", "short_name": "IT", "types": ["country", "political"]}, {"long_name": "52100", "short_name": "52100", "types": ["postal_code"]}], "formatted_address": "Via Madonna Laura, 10, 52100 Arezzo AR, Italy", "geometry": {"bounds": {"northeast": {"lat": 43.4677184, "lng": 11.8842992}, "southwest": {"lat": 43.4675917, "lng": 11.8841225}}, "location": {"lat": 43.46766059999999, "lng": 11.8842042}, "location_type": "ROOFTOP", "viewport": {"northeast": {"lat": 43.46900403029149, "lng": 11.8855598302915}, "southwest": {"lat": 43.46630606970849, "lng": 11.8828618697085}}}, "place_id": "ChIJPb4jOFftKxMRIMK2u3yVuts", "types": ["premise"]}, {"address_components": [{"long_name": "FV8P+X3", "short_name": "FV8P+X3", "types": ["plus_code"]}, {"long_name": "Arezzo", "short_name": "Arezzo", "types": ["locality", "political"]}, {"long_name": "Arezzo", "short_name": "Arezzo", "types": ["administrative_area_level_3", "political"]}, {"long_name": "Province of Arezzo", "short_name": "AR", "types": ["administrative_area_level_2", "political"]}, {"long_name": "Tuscany", "short_name": "Tuscany", "types": ["administrative_area_level_1", "political"]}, {"long_name": "Italy", "short_name": "IT", "types": ["country", "political"]}, {"long_name": "52100", "short_name": "52100", "types": ["postal_code"]}], "formatted_address": "FV8P+X3 Arezzo, Province of Arezzo, Italy", "geometry": {"bounds": {"northeast": {"lat": 43.4675, "lng": 11.88525}, "southwest": {"lat": 43.467375, "lng": 11.885125}}, "location": {"lat": 43.4674483, "lng": 11.8851267}, "location_type": "GEOMETRIC_CENTER", "viewport": {"northeast": {"lat": 43.4687864802915, "lng": 11.8865364802915}, "southwest": {"lat": 43.4660885197085, "lng": 11.8838385197085}}}, "place_id": "GhIJEImMWNW7RUARAKKqUy_FJ0A", "plus_code": {"compound_code": "FV8P+X3 Arezzo, Province of Arezzo, Italy", "global_code": "8FMHFV8P+X3"}, "types": ["plus_code"]}, {"address_components": [{"long_name": "Strada senza nome", "short_name": "Strada senza nome", "types": ["route"]}, {"long_name": "Arezzo", "short_name": "Arezzo", "types": ["locality", "political"]}, {"long_name": "Arezzo", "short_name": "Arezzo", "types": ["administrative_area_level_3", "political"]}, {"long_name": "Provincia di Arezzo", "short_name": "AR", "types": ["administrative_area_level_2", "political"]}, {"long_name": "Toscana", "short_name": "Toscana", "types": ["administrative_area_level_1", "political"]}, {"long_name": "Italy", "short_name": "IT", "types": ["country", "political"]}, {"long_name": "52100", "short_name": "52100", "types": ["postal_code"]}], "formatted_address": "Strada senza nome, 52100 Arezzo AR, Italy", "geometry": {"bounds": {"northeast": {"lat": 43.4675267, "lng": 11.8853206}, "southwest": {"lat": 43.4672323, "lng": 11.8847804}}, "location": {"lat": 43.4674752, "lng": 11.8851408}, "location_type": "GEOMETRIC_CENTER", "viewport": {"northeast": {"lat": 43.4687284802915, "lng": 11.8863994802915}, "southwest": {"lat": 43.4660305197085, "lng": 11.8837015197085}}}, "place_id": "ChIJfe4Ba1ftKxMR8kqPy4daE1I", "types": ["route"]}, {"address_components": [{"long_name": "Quartiere di Porta Crucifera", "short_name": "Quartiere di Porta Crucifera", "types": ["neighborhood", "political"]}, {"long_name": "Arezzo", "short_name": "Arezzo", "types": ["locality", "political"]}, {"long_name": "Arezzo", "short_name": "Arezzo", "types": ["administrative_area_level_3", "political"]}, {"long_name": "Provincia di Arezzo", "short_name": "AR", "types": ["administrative_area_level_2", "political"]}, {"long_name": "Toscana", "short_name": "Toscana", "types": ["administrative_area_level_1", "political"]}, {"long_name": "Italy", "short_name": "IT", "types": ["country", "political"]}, {"long_name": "52100", "short_name": "52100", "types": ["postal_code"]}], "formatted_address": "Quartiere di Porta Crucifera, 52100 Arezzo AR, Italy", "geometry": {"bounds": {"northeast": {"lat": 43.4704326, "lng": 11.9062614}, "southwest": {"lat": 43.46008399999999, "lng": 11.8803782}}, "location": {"lat": 43.464221, "lng": 11.8934495}, "location_type": "APPROXIMATE", "viewport": {"northeast": {"lat": 43.4704326, "lng": 11.9062614}, "southwest": {"lat": 43.46008399999999, "lng": 11.8803782}}}, "place_id": "ChIJK6E1a6nyKxMR0rBA3XpnOS8", "types": ["neighborhood", "political"]}, {"address_components": [{"long_name": "Arezzo", "short_name": "Arezzo", "types": ["locality", "political"]}, {"long_name": "Arezzo", "short_name": "Arezzo", "types": ["administrative_area_level_3", "political"]}, {"long_name": "Province of Arezzo", "short_name": "AR", "types": ["administrative_area_level_2", "political"]}, {"long_name": "Tuscany", "short_name": "Tuscany", "types": ["administrative_area_level_1", "political"]}, {"long_name": "Italy", "short_name": "IT", "types": ["country", "political"]}, {"long_name": "52100", "short_name": "52100", "types": ["postal_code"]}], "formatted_address": "52100 Arezzo, Province of Arezzo, Italy", "geometry": {"bounds": {"northeast": {"lat": 43.4995733, "lng": 11.9240635}, "southwest": {"lat": 43.3514366, "lng": 11.8096337}}, "location": {"lat": 43.46328390000001, "lng": 11.8796336}, "location_type": "APPROXIMATE", "viewport": {"northeast": {"lat": 43.4995733, "lng": 11.9240635}, "southwest": {"lat": 43.3514366, "lng": 11.8096337}}}, "place_id": "ChIJFaj983LtKxMRCNw0h7HxRvg", "types": ["locality", "political"]}, {"address_components": [{"long_name": "52100", "short_name": "52100", "types": ["postal_code"]}, {"long_name": "Arezzo", "short_name": "Arezzo", "types": ["administrative_area_level_3", "political"]}, {"long_name": "Province of Arezzo", "short_name": "AR", "types": ["administrative_area_level_2", "political"]}, {"long_name": "Tuscany", "short_name": "Tuscany", "types": ["administrative_area_level_1", "political"]}, {"long_name": "Italy", "short_name": "IT", "types": ["country", "political"]}], "formatted_address": "52100 Arezzo, Province of Arezzo, Italy", "geometry": {"bounds": {"northeast": {"lat": 43.557538, "lng": 12.077832}, "southwest": {"lat": 43.327618, "lng": 11.7405421}}, "location": {"lat": 43.4325438, "lng": 11.9348069}, "location_type": "APPROXIMATE", "viewport": {"northeast": {"lat": 43.557538, "lng": 12.077832}, "southwest": {"lat": 43.327618, "lng": 11.7405421}}}, "place_id": "ChIJ_TUD94zyKxMR4PR9QpQsCBw", "types": ["postal_code"]}, {"address_components": [{"long_name": "Arezzo", "short_name": "Arezzo", "types": ["administrative_area_level_3", "political"]}, {"long_name": "Province of Arezzo", "short_name": "AR", "types": ["administrative_area_level_2", "political"]}, {"long_name": "Tuscany", "short_name": "Tuscany", "types": ["administrative_area_level_1", "political"]}, {"long_name": "Italy", "short_name": "IT", "types": ["country", "political"]}, {"long_name": "52100", "short_name": "52100", "types": ["postal_code"]}], "formatted_address": "52100 Arezzo, Province of Arezzo, Italy", "geometry": {"bounds": {"northeast": {"lat": 43.5575116, "lng": 12.077847}, "southwest": {"lat": 43.3275898, "lng": 11.7405612}}, "location": {"lat": 43.46330589999999, "lng": 11.8796427}, "location_type": "APPROXIMATE", "viewport": {"northeast": {"lat": 43.5575116, "lng": 12.077847}, "southwest": {"lat": 43.3275898, "lng": 11.7405612}}}, "place_id": "ChIJq51BR0TtKxMRFjTOZdT27Us", "types": ["administrative_area_level_3", "political"]}, {"address_components": [{"long_name": "Province of Arezzo", "short_name": "AR", "types": ["administrative_area_level_2", "political"]}, {"long_name": "Tuscany", "short_name": "Tuscany", "types": ["administrative_area_level_1", "political"]}, {"long_name": "Italy", "short_name": "IT", "types": ["country", "political"]}], "formatted_address": "Province of Arezzo, Italy", "geometry": {"bounds": {"northeast": {"lat": 43.8779711, "lng": 12.3713555}, "southwest": {"lat": 43.156372, "lng": 11.3975269}}, "location": {"lat": 43.4668955, "lng": 11.8823602}, "location_type": "APPROXIMATE", "viewport": {"northeast": {"lat": 43.8779711, "lng": 12.3713555}, "southwest": {"lat": 43.156372, "lng": 11.3975269}}}, "place_id": "ChIJTSEs636SKxMRkIDk45AsCAM", "types": ["administrative_area_level_2", "political"]}, {"address_components": [{"long_name": "Tuscany", "short_name": "Tuscany", "types": ["administrative_area_level_1", "political"]}, {"long_name": "Italy", "short_name": "IT", "types": ["country", "political"]}], "formatted_address": "Tuscany, Italy", "geometry": {"bounds": {"northeast": {"lat": 44.4726899, "lng": 12.3713555}, "southwest": {"lat": 42.2376686, "lng": 9.6867213}}, "location": {"lat": 43.7710513, "lng": 11.2486208}, "location_type": "APPROXIMATE", "viewport": {"northeast": {"lat": 44.4726899, "lng": 12.3713555}, "southwest": {"lat": 42.2376686, "lng": 9.6867213}}}, "place_id": "ChIJezSAEFMr1BIRq1kgW7rDxro", "types": ["administrative_area_level_1", "political"]}, {"address_components": [{"long_name": "Italy", "short_name": "IT", "types": ["country", "political"]}], "formatted_address": "Italy", "geometry": {"bounds": {"northeast": {"lat": 47.092, "lng": 18.7975999}, "southwest": {"lat": 35.4897, "lng": 6.6267201}}, "location": {"lat": 41.87194, "lng": 12.56738}, "location_type": "APPROXIMATE", "viewport": {"northeast": {"lat": 47.092, "lng": 18.7975999}, "southwest": {"lat": 35.4897, "lng": 6.6267201}}}, "place_id": "ChIJA9KNRIL-1BIRb15jJFz1LOI", "types": ["country", "political"]}], "status": "OK"}